,City,Latitude,Longitude,Temperature,Humidity,Cloudiness,Wind Speed,Country,Date
0,punta arenas,-53.16,-70.91,46.22,75,75,26.4,CL,1555733589
1,aksu,52.04,76.93,33.8,55,90,11.18,KZ,1555731000
2,aksarka,66.56,67.8,11.87,87,14,2.1,RU,1555733674
3,longyearbyen,78.22,15.63,30.2,92,75,6.93,NO,1555728600
4,yellowknife,62.45,-114.38,29.21,68,90,11.41,CA,1555733568
5,mathbaria,22.29,89.96,93.43,27,0,6.67,BD,1555733910
6,tilichiki,60.47,166.1,39.2,66,52,9.19,RU,1555733910
7,siderno,38.28,16.3,51.67,93,75,2.24,IT,1555733727
8,gravdal,59.79,5.78,42.93,70,0,12.75,NO,1555733887
9,rio cuarto,-33.13,-64.35,68.0,77,75,3.36,AR,1555729200
10,rikitea,-23.12,-134.97,79.07,79,5,11.79,PF,1555733631
11,avarua,-21.21,-159.78,77.0,57,100,4.7,CK,1555731000
12,dwarka,28.58,77.04,82.29,47,0,3.36,IN,1555732808
13,tuatapere,-46.13,167.69,55.99,83,92,0.87,NZ,1555733407
14,khatanga,71.98,102.47,3.54,86,0,5.41,RU,1555733916
15,hobart,-42.88,147.33,71.35,46,20,11.41,AU,1555733655
16,avera,33.19,-82.53,54.25,76,40,12.75,US,1555733881
17,souillac,45.6,-0.6,51.55,71,0,2.24,FR,1555733763
18,mataura,-46.19,168.86,55.99,83,100,2.46,NZ,1555733407
19,la orilla,18.0,-102.23,75.45,75,59,2.62,MX,1555733917
20,chokurdakh,70.62,147.9,11.57,83,43,5.26,RU,1555733619
21,kapaa,22.08,-159.32,76.77,61,1,16.11,US,1555733901
22,kidal,18.44,1.41,83.98,9,0,7.45,ML,1555733922
23,yinchuan,38.48,106.21,65.28,24,100,3.58,CN,1555733922
24,busselton,-33.64,115.35,60.98,48,95,16.17,AU,1555733739
25,faanui,-16.48,-151.75,84.11,71,100,7.05,PF,1555733636
26,acajutla,13.59,-89.83,83.37,74,98,8.12,SV,1555733923
27,akdepe,42.05,59.39,40.24,64,75,9.17,TM,1555731000
28,mackenzie,55.34,-123.09,42.8,45,20,8.05,CA,1555729200
29,broken hill,-31.97,141.45,84.2,21,0,12.75,AU,1555729200
30,vostok,46.45,135.83,48.18,30,0,4.7,RU,1555733928
31,vaini,15.34,74.49,78.8,69,20,6.93,IN,1555729200
32,manica,-18.94,32.88,62.6,100,75,4.7,MZ,1555732800
33,hilo,19.71,-155.08,72.46,61,20,9.17,US,1555733602
34,bondo,3.81,23.69,69.69,93,100,1.21,CD,1555733702
35,dingle,11.0,122.67,94.58,37,0,10.18,PH,1555733929
36,new norfolk,-42.78,147.06,72.16,46,20,11.41,AU,1555733700
37,byumba,-1.58,30.06,62.26,82,40,5.82,RW,1555733571
38,albany,42.65,-73.75,65.28,82,90,18.34,US,1555733854
39,caravelas,-17.73,-39.27,78.0,86,0,3.0,BR,1555733935
40,castro,-42.48,-73.76,42.8,87,29,4.7,CL,1555729200
41,guerrero negro,27.97,-114.04,61.7,85,91,12.37,MX,1555733940
42,ostrovnoy,68.05,39.51,29.67,89,6,11.45,RU,1555733940
43,cherskiy,68.75,161.3,8.42,82,77,2.93,RU,1555733940
44,camopi,3.17,-52.33,73.09,99,100,1.99,GF,1555733940
45,itoman,26.12,127.67,71.87,83,75,10.29,JP,1555733589
46,barrow,-38.31,-60.23,54.41,76,0,6.33,AR,1555733941
47,ribeira grande,38.52,-28.7,61.8,93,0,13.4,PT,1555733941
48,upernavik,72.79,-56.15,4.67,68,2,8.95,GL,1555733941
49,panama city,30.16,-85.65,56.19,54,1,11.41,US,1555733818
50,butaritari,3.07,172.79,82.83,77,100,20.67,KI,1555733715
51,sorong,-0.86,131.25,91.97,54,0,2.71,ID,1555733702
52,atar,20.52,-13.05,77.01,19,0,9.86,MR,1555733946
53,baoqing,46.32,132.2,54.46,17,32,9.95,CN,1555733946
54,sonamura,23.47,91.27,87.8,66,40,6.13,IN,1555731000
55,visby,57.64,18.3,35.47,86,0,1.97,SE,1555733799
56,taoudenni,22.68,-3.98,78.78,14,87,11.07,ML,1555733947
57,vestmannaeyjar,63.44,-20.27,45.03,75,100,29.73,IS,1555733947
58,rocha,-34.48,-54.34,65.75,82,0,8.75,UY,1555733876
59,port alfred,-33.59,26.89,64.99,80,47,7.0,ZA,1555733887
60,codrington,-28.95,153.24,76.3,73,75,10.29,AU,1555733893
61,san carlos de bariloche,-41.13,-71.31,41.0,87,0,4.7,AR,1555729200
62,kruisfontein,-34.0,24.73,57.56,86,47,7.43,ZA,1555733953
63,kardla,58.44,26.57,45.52,70,96,6.93,EE,1555733416
64,norway,45.79,-87.9,34.48,59,1,2.62,US,1555733696
65,richards bay,-28.77,32.06,75.72,81,0,28.48,ZA,1555733953
66,pevek,69.7,170.27,8.7,89,100,11.72,RU,1555733953
67,namatanai,-3.66,152.44,82.22,78,100,4.05,PG,1555733953
68,port hawkesbury,45.62,-61.36,52.52,93,90,18.34,CA,1555733818
69,saint george,39.45,22.34,49.05,87,40,4.7,GR,1555733611
70,atuona,-9.8,-139.03,83.8,73,22,10.49,PF,1555733959
71,yarim,14.3,44.38,66.18,78,100,1.16,YE,1555733959
72,puerto ayora,-0.74,-90.35,77.0,95,57,3.0,EC,1555731078
73,constitucion,23.99,-104.67,56.87,14,2,9.1,MX,1555733959
74,yulara,-25.24,130.99,86.0,20,100,16.11,AU,1555729200
75,mabaruma,8.2,-59.78,72.73,96,98,2.08,GY,1555733959
76,qaanaaq,77.48,-69.36,-18.3,83,100,3.69,GL,1555733714
77,henties bay,-22.12,14.28,55.99,93,1,3.0,NA,1555732928
78,khargupur,27.38,81.99,86.12,28,0,2.66,IN,1555733960
79,cockburn town,21.46,-71.14,79.14,76,0,23.35,TC,1555733960
80,atambua,-9.11,124.89,86.64,62,3,2.68,ID,1555733965
81,port augusta,-32.49,137.76,86.61,16,100,23.04,AU,1555733081
82,tiksi,71.64,128.87,19.7,72,0,5.86,RU,1555733631
83,grindavik,63.84,-22.43,42.91,86,40,19.46,IS,1555732800
84,inhambane,-23.87,35.38,68.0,94,75,3.09,MZ,1555732800
85,ancud,-41.87,-73.83,42.8,87,8,4.7,CL,1555729200
86,beringovskiy,63.05,179.32,22.51,84,6,14.85,RU,1555733966
87,esperance,10.24,-61.45,77.5,83,75,3.36,TT,1555733773
88,victoria,5.28,115.24,87.37,74,75,3.36,BN,1555731000
89,cape town,-33.93,18.42,57.7,93,20,5.82,ZA,1555733570
90,nikolskoye,59.7,30.79,37.78,64,0,2.24,RU,1555733645
91,chumikan,54.72,135.31,27.71,93,99,6.55,RU,1555733971
92,bredasdorp,-34.53,20.04,57.2,76,0,9.17,ZA,1555732800
93,chilakalurupet,16.09,80.17,90.17,59,1,11.1,IN,1555733971
94,hermanus,-34.42,19.24,57.99,93,1,5.01,ZA,1555732902
95,kulhudhuffushi,6.62,73.07,85.64,73,98,10.29,MV,1555733688
96,roma,41.89,12.48,50.0,66,0,2.24,IT,1555733824
97,lorengau,-2.02,147.27,85.4,67,46,1.66,PG,1555733972
98,tasiilaq,65.61,-37.64,30.63,78,92,1.03,GL,1555733972
99,sovetskaya gavan,48.97,140.29,39.7,51,61,6.8,RU,1555733972
100,coos bay,43.37,-124.22,53.44,93,90,6.93,US,1555733741
101,georgetown,6.8,-58.16,77.0,94,20,4.7,GY,1555729200
102,zhigansk,66.77,123.37,26.16,73,100,11.07,RU,1555733978
103,bluff,-23.58,149.07,86.99,34,0,15.17,AU,1555733636
104,kodiak,39.95,-94.76,47.52,57,1,3.36,US,1555733912
105,jalingo,10.3,10.93,79.26,13,39,4.81,NG,1555733978
106,hasaki,35.73,140.83,61.2,47,40,8.05,JP,1555733828
107,miles city,46.41,-105.84,62.8,55,20,8.05,US,1555733954
108,lasa,34.92,32.53,51.26,87,20,8.05,CY,1555733724
109,harper,30.3,-99.24,56.07,76,1,7.07,US,1555733754
110,rafaela,-31.25,-61.49,73.35,66,80,3.6,AR,1555733931
111,iqaluit,63.75,-68.52,23.0,92,90,3.36,CA,1555733565
112,ust-kalmanka,52.12,83.31,29.8,80,100,7.14,RU,1555733984
113,tuktoyaktuk,69.44,-133.03,12.2,85,75,11.41,CA,1555732800
114,sibolga,1.74,98.78,84.59,67,100,5.59,ID,1555733984
115,lebu,8.96,38.73,59.0,72,40,6.93,ET,1555732800
116,tautira,-17.73,-149.15,80.29,83,75,10.29,PF,1555733585
117,talnakh,69.49,88.39,-7.61,76,0,2.24,RU,1555731000
118,betafo,-19.84,46.86,59.36,96,0,5.84,MG,1555733985
119,baghdad,33.3,44.38,53.6,87,0,5.82,IQ,1555729200
120,east london,-33.02,27.91,64.4,48,0,13.87,ZA,1555732800
121,pimenta bueno,-11.68,-61.19,74.89,91,99,1.63,BR,1555733990
122,leningradskiy,69.38,178.42,8.67,89,76,4.12,RU,1555733990
123,venado tuerto,-33.75,-61.97,63.0,60,99,5.55,AR,1555733975
124,jamestown,-33.21,138.6,86.61,15,72,16.55,AU,1555733991
125,ballitoville,-29.54,31.21,68.65,88,0,6.93,ZA,1555733989
126,mar del plata,-46.43,-67.52,52.89,62,0,3.96,AR,1555733959
127,sola,62.78,29.36,32.99,93,0,5.82,FI,1555733826
128,bubaque,11.28,-15.83,78.36,72,0,13.13,GW,1555733991
129,carnarvon,-30.97,22.13,53.54,34,50,7.43,ZA,1555733630
130,dibulla,11.27,-73.31,82.16,78,26,20.54,CO,1555733961
131,lusambo,-4.97,23.44,72.68,74,99,2.19,CD,1555733996
132,robertsganj,24.69,83.07,89.69,28,0,2.71,IN,1555733996
133,ostersund,63.18,14.64,30.13,69,2,6.93,SE,1555733721
134,belmonte,40.36,-7.35,52.0,74,2,3.0,PT,1555733835
135,pacific grove,36.62,-121.92,53.62,87,90,9.17,US,1555733982
136,carlsbad,50.23,12.87,38.61,60,0,2.24,CZ,1555733898
137,wewak,-3.55,143.63,84.54,72,3,5.01,PG,1555733997
138,prince george,53.92,-122.75,42.91,45,75,6.93,CA,1555733721
139,kahului,20.89,-156.47,74.03,65,40,13.87,US,1555733738
140,acapulco,16.86,-99.88,77.0,88,5,8.05,MX,1555728120
141,san policarpo,12.18,125.51,84.14,72,2,9.06,PH,1555734003
142,puerto escondido,15.86,-97.07,78.2,79,30,2.77,MX,1555734003
143,arraial do cabo,-22.97,-42.02,74.64,86,2,4.0,BR,1555734003
144,auki,12.18,6.51,81.75,10,94,5.14,NG,1555734003
145,aykhal,65.95,111.51,23.0,35,0,8.95,RU,1555729200
146,magan,62.1,129.53,37.4,40,0,11.18,RU,1555731000
147,bud,62.91,6.91,43.92,57,0,9.17,NO,1555733761
148,gunjur,13.18,-16.76,72.87,76,1,12.08,GM,1555734004
149,newcastle,-27.76,29.92,52.35,69,0,5.97,ZA,1555734004
150,merrill,42.03,-121.6,54.05,76,90,10.29,US,1555734002
151,shache,38.42,77.24,66.99,95,30,14.52,CN,1555733727
152,pangody,65.85,74.49,15.92,89,100,14.76,RU,1555734009
153,ariquemes,-9.91,-63.03,74.15,97,100,2.39,BR,1555734009
154,cutro,39.04,16.98,44.6,75,0,8.05,IT,1555728600
155,trenggalek,-8.05,111.71,82.99,66,75,8.16,ID,1555733843
156,natal,-5.81,-35.21,78.8,83,20,4.7,BR,1555732800
157,suyan,22.77,110.13,83.78,78,82,9.46,CN,1555734010
158,yasnyy,64.04,44.09,31.29,89,1,2.91,RU,1555734010
159,lyngdal,58.14,7.07,38.77,53,0,5.82,NO,1555734006
160,te anau,-45.41,167.72,44.76,95,95,3.27,NZ,1555734025
161,rubio,7.7,-72.36,77.0,88,40,2.24,VE,1555729200
162,adamovka,51.52,59.94,37.2,36,0,5.57,RU,1555734025
163,ambulu,-8.35,113.61,83.98,71,100,9.51,ID,1555734026
164,klaksvik,62.23,-6.59,46.4,100,82,9.17,FO,1555732200
165,torbay,47.66,-52.73,41.0,100,90,27.51,CA,1555733919
166,adrar,27.87,-0.29,62.6,12,0,6.93,DZ,1555732800
167,fuxin,42.02,121.65,53.04,52,100,12.21,CN,1555734026
168,jega,12.22,4.38,84.84,7,78,9.04,NG,1555734026
169,hobyo,5.35,48.53,81.82,79,67,9.57,SO,1555734026
170,katsuura,33.93,134.5,62.98,39,44,12.75,JP,1555733290
171,saldanha,41.42,-6.55,52.52,64,0,10.98,PT,1555734032
172,dikson,73.51,80.55,-4.37,95,98,0.36,RU,1555734032
173,uthal,25.81,66.62,80.79,51,0,2.84,PK,1555734032
174,vuktyl,63.86,57.31,32.25,95,100,5.7,RU,1555734032
175,hammerfest,70.66,23.68,42.8,87,100,27.51,NO,1555730400
176,provideniya,64.42,-173.23,15.72,55,63,4.7,RU,1555734032
177,sangod,24.93,76.29,86.0,33,0,4.38,IN,1555731000
178,whitehorse,60.72,-135.06,34.92,34,20,4.7,CA,1555733998
179,mago,53.27,140.15,36.6,86,94,4.32,RU,1555734033
180,keti bandar,24.14,67.45,78.45,80,0,10.89,PK,1555734038
181,bethel,60.79,-161.76,28.4,58,90,8.05,US,1555732380
182,eureka,40.8,-124.16,52.88,93,90,8.05,US,1555733727
183,nago,45.88,10.89,47.43,87,5,2.24,IT,1555733911
184,san jose,15.79,120.99,93.05,43,49,7.29,PH,1555733986
185,severo-kurilsk,50.68,156.12,34.73,84,0,20.31,RU,1555734040
186,kiama,-34.67,150.86,74.44,69,40,9.17,AU,1555733713
187,sandwick,54.57,-2.89,50.4,71,97,4.7,GB,1555733996
188,moctezuma,29.81,-109.68,75.47,17,19,8.48,MX,1555734040
189,villa carlos paz,-31.42,-64.5,72.72,83,75,8.05,AR,1555732839
190,hualmay,-11.1,-77.61,69.02,89,30,13.69,PE,1555733766
191,chiredzi,-21.05,31.67,63.19,95,0,1.74,ZW,1555734045
192,alice springs,-23.7,133.88,86.0,19,82,9.17,AU,1555731000
193,paita,-5.09,-81.11,71.24,90,50,15.12,PE,1555734046
194,touros,-5.2,-35.46,78.8,94,75,8.34,BR,1555732800
195,jiwani,25.05,61.74,79.61,72,0,4.81,PK,1555734046
196,bambous virieux,-20.34,57.76,81.57,69,40,8.05,MU,1555733941
197,khasan,42.43,130.64,54.23,35,100,5.91,RU,1555734046
198,airai,-8.93,125.41,89.33,52,0,1.34,TL,1555733624
199,sierra vista,31.55,-110.3,67.87,13,1,11.41,US,1555733863
200,solano,16.52,121.18,82.13,52,60,3.02,PH,1555734051
201,tomatlan,19.93,-105.25,72.71,84,0,4.14,MX,1555734051
202,ponta do sol,-20.63,-46.0,58.08,88,0,1.43,BR,1555733630
203,viedma,-40.81,-62.99,57.88,65,0,13.42,AR,1555734052
204,sobolevo,54.43,31.9,41.63,67,99,4.97,RU,1555734052
205,panaba,21.28,-88.27,75.88,50,0,8.34,MX,1555734052
206,buraydah,26.33,43.97,64.4,42,0,13.87,SA,1555729200
207,zaranj,30.95,61.86,71.6,56,20,9.17,AF,1555729200
208,luena,-11.78,19.91,60.9,96,88,1.45,AO,1555734053
209,pisco,-13.71,-76.2,70.41,73,0,8.05,PE,1555733754
210,mahebourg,-20.41,57.7,81.55,69,40,8.05,MU,1555733941
211,lewistown,40.39,-90.15,46.89,56,1,9.17,US,1555734016
212,kalmunai,7.42,81.82,84.25,68,88,2.95,LK,1555734058
213,batemans bay,-35.71,150.18,73.96,47,16,6.13,AU,1555733792
214,monrovia,6.33,-10.8,75.2,94,100,4.79,LR,1555732800
215,vangaindrano,-23.35,47.6,70.08,94,29,7.02,MG,1555734059
216,hedaru,-4.5,37.91,68.97,90,77,4.45,TZ,1555734059
217,ilulissat,69.22,-51.1,15.9,76,0,7.16,GL,1555734059
218,dothan,31.22,-85.39,51.08,87,40,3.36,US,1555733927
219,ginir,7.14,40.71,59.03,91,76,2.28,ET,1555734059
220,itarema,-2.92,-39.92,76.71,93,99,2.84,BR,1555734064
221,aklavik,68.22,-135.01,21.2,73,90,6.93,CA,1555732800
222,itamaraju,-17.04,-39.53,71.67,99,34,3.2,BR,1555733974
223,cabo san lucas,22.89,-109.91,72.28,27,5,10.51,MX,1555734008
224,naze,5.43,7.07,78.54,84,100,4.92,NG,1555734065
225,gurupi,-11.73,-49.07,75.59,84,82,1.88,BR,1555734065
226,moron,10.49,-68.2,74.26,92,90,2.28,VE,1555734065
227,tabas,33.6,56.92,71.6,35,0,4.7,IR,1555729200
228,manggar,-2.88,108.27,83.51,80,100,4.12,ID,1555734065
229,vila velha,-3.71,-38.6,78.6,88,0,2.17,BR,1555732800
230,ternate,14.29,120.72,93.07,46,20,11.41,PH,1555734049
231,comodoro rivadavia,-45.87,-67.48,53.6,50,0,12.75,AR,1555729200
232,linkuva,56.09,23.97,39.2,74,0,9.17,LT,1555732200
233,pedernales,0.07,-80.05,78.65,85,56,11.77,EC,1555734071
234,hambantota,6.12,81.12,86.0,79,20,2.24,LK,1555729800
235,rincon,32.3,-81.24,61.11,67,1,8.05,US,1555733888
236,shelburne,44.08,-80.2,38.48,100,90,8.05,CA,1555734005
237,wanlaweyn,2.62,44.89,81.05,77,37,2.73,SO,1555734072
238,sharhorod,48.75,28.08,32.95,100,0,4.47,UA,1555733714
239,vila do maio,15.13,-23.22,69.8,77,20,11.41,CV,1555732800
240,vardo,39.62,-77.74,64.6,88,1,10.29,US,1555734046
241,guilin,25.28,110.29,77.0,83,90,4.47,CN,1555729200
242,maldonado,-34.91,-54.96,62.6,88,75,5.82,UY,1555729200
243,oppdal,62.6,9.69,37.09,55,27,5.82,NO,1555734077
244,okha,53.59,142.95,36.86,84,83,15.08,RU,1555734078
245,tawau,4.26,117.89,87.3,70,75,9.17,MY,1555729200
246,hurricane,37.18,-113.29,63.5,24,1,3.36,US,1555734028
247,muli,22.62,71.45,86.3,26,0,8.32,IN,1555734078
248,codajas,-3.84,-62.06,78.27,87,100,1.72,BR,1555734078
249,moose factory,51.26,-80.61,41.0,56,90,5.82,CA,1555732800
250,saint-joseph,43.56,6.97,49.1,75,0,4.7,FR,1555734060
251,champerico,16.38,-93.6,73.4,56,40,19.46,MX,1555729080
252,imuris,30.78,-110.86,71.72,19,100,8.77,MX,1555734084
253,vila franca do campo,37.72,-25.43,60.8,93,75,5.82,PT,1555731000
254,sakaiminato,35.55,133.23,60.98,44,20,13.87,JP,1555729200
255,gari,59.43,62.35,35.81,77,85,6.69,RU,1555734085
256,kolvereid,64.86,11.6,46.4,64,83,7.56,NO,1555734085
257,mporokoso,-9.37,30.12,61.8,97,78,6.91,ZM,1555734085
258,vilyuysk,63.75,121.63,28.4,82,100,15.57,RU,1555734085
259,eirunepe,-6.66,-69.87,74.21,96,64,2.71,BR,1555734085
260,skibbereen,51.55,-9.27,48.2,93,20,5.82,IE,1555731000
261,xai-xai,-25.04,33.64,67.29,94,0,4.03,MZ,1555734090
262,menongue,-14.66,17.68,62.18,87,76,1.39,AO,1555734091
263,sorland,67.67,12.69,44.07,89,100,24.94,NO,1555734091
264,aksha,50.28,113.29,34.77,24,0,17.63,RU,1555734091
265,west odessa,31.84,-102.48,60.62,58,1,5.82,US,1555733537
266,qaqortoq,60.72,-46.03,28.79,41,0,3.94,GL,1555734091
267,san jeronimo,-13.65,-73.37,44.31,82,100,3.85,PE,1555734091
268,tete,-16.16,33.59,69.8,94,75,5.1,MZ,1555732800
269,christchurch,-43.53,172.64,64.51,63,100,6.93,NZ,1555734003
270,fez,34.03,-5.02,50.0,87,75,3.36,MA,1555732800
271,bonthe,7.53,-12.5,82.9,77,99,6.24,SL,1555734097
272,killybegs,54.63,-8.45,50.0,95,88,1.01,IE,1555733523
273,brae,60.4,-1.35,48.65,71,36,23.04,GB,1555730400
274,kincardine,56.07,-3.72,46.47,100,0,1.12,GB,1555734040
275,byron bay,-28.65,153.62,75.47,69,75,18.34,AU,1555734034
276,los llanos de aridane,28.66,-17.92,64.4,68,4,17.22,ES,1555732800
277,san andres,13.32,122.68,92.3,45,33,3.47,PH,1555734098
278,puquio,-14.69,-74.12,45.23,88,100,5.32,PE,1555734098
279,cidreira,-30.17,-50.22,68.91,84,1,4.03,BR,1555734098
280,akureyri,65.68,-18.09,42.8,70,75,14.99,IS,1555732800
281,paka,45.29,18.06,39.2,75,0,5.82,HR,1555732800
282,lodwar,3.12,35.6,85.47,50,77,8.59,KE,1555734104
283,nabire,-3.36,135.5,85.22,66,99,2.21,ID,1555734104
284,quatre cocos,-20.21,57.76,81.61,69,40,8.05,MU,1555733941
285,baykit,61.68,96.39,18.46,84,2,8.25,RU,1555734104
286,ico,-13.77,-72.87,39.18,91,100,1.48,PE,1555734104
287,sangar,63.92,127.47,30.95,61,100,19.71,RU,1555734104
288,san vicente,13.64,-88.78,80.6,79,75,3.36,SV,1555728600
289,sampit,-2.54,112.95,87.15,60,100,3.69,ID,1555734106
290,rajapur,25.39,81.15,89.06,23,0,3.94,IN,1555734112
291,college,64.86,-147.8,33.91,74,75,4.7,US,1555734008
292,edson,53.59,-116.44,37.4,51,1,5.82,CA,1555732800
293,gat,14.69,-16.54,68.0,72,0,20.8,SN,1555732800
294,grunstadt,49.57,8.17,48.52,46,1,3.78,DE,1555734108
295,oskaloosa,39.22,-95.31,48.85,65,1,3.69,US,1555734060
296,nemuro,43.32,145.57,50.0,29,20,13.87,JP,1555729200
297,mackay,53.65,-115.58,40.98,28,20,8.05,CA,1555732800
298,basco,40.33,-91.2,48.24,39,1,5.82,US,1555734071
299,faya,18.39,42.45,59.94,72,0,0.38,SA,1555729200
300,morondava,-20.3,44.28,81.44,78,0,9.86,MG,1555734118
301,half moon bay,37.46,-122.43,55.06,93,90,5.82,US,1555734103
302,rancho palos verdes,33.75,-118.37,56.8,82,90,4.7,US,1555734118
303,damara,4.96,18.7,75.57,83,100,3.31,CF,1555734118
304,saskylakh,71.97,114.09,6.78,89,35,4.0,RU,1555734119
305,tazovskiy,67.47,78.7,0.64,83,45,7.54,RU,1555734119
306,yar-sale,66.83,70.83,9.86,94,13,9.48,RU,1555734119
307,kawalu,-7.38,108.21,81.19,70,99,4.34,ID,1555734119
308,namibe,-15.19,12.15,74.08,80,2,12.06,AO,1555734119
309,manoharpur,22.35,85.21,85.56,43,0,4.36,IN,1555734119
310,muros,42.77,-9.06,52.75,71,0,2.24,ES,1555734094
311,hithadhoo,-0.6,73.08,85.13,76,96,16.69,MV,1555733587
312,nanortalik,60.14,-45.24,28.81,85,0,5.39,GL,1555734125
313,san patricio,-26.98,-56.83,75.48,73,25,3.71,PY,1555734125
314,chadiza,-14.06,32.43,64.22,87,46,12.88,ZM,1555734125
315,marsa matruh,31.35,27.25,60.8,55,20,8.05,EG,1555729200
316,uberaba,-19.75,-47.94,66.2,63,0,4.7,BR,1555729200
317,port lincoln,-34.72,135.86,66.03,85,100,16.28,AU,1555734126
318,agra,27.18,78.01,84.2,42,5,3.36,IN,1555731000
319,tonkino,57.37,46.46,39.56,80,100,2.84,RU,1555734126
320,ambunti,-4.22,142.82,96.42,48,19,1.16,PG,1555734131
321,leh,34.16,77.58,23.61,34,0,2.55,IN,1555734131
322,agadez,16.97,7.99,78.8,9,1,8.34,NE,1555728960
323,marseille,43.3,5.37,53.17,66,0,5.82,FR,1555733855
324,rawson,-43.3,-65.11,55.02,53,0,7.14,AR,1555734132
325,arlit,18.74,7.39,79.52,7,0,9.73,NE,1555734132
326,hofn,64.25,-15.21,32.91,98,89,15.64,IS,1555734132
327,klamath falls,42.22,-121.78,54.05,76,90,10.29,US,1555734126
328,osorno,-40.57,-73.14,43.28,98,0,2.51,CL,1555734132
329,shamkhal,43.06,47.33,41.0,86,90,6.71,RU,1555731000
330,buala,-8.15,159.59,82.67,71,100,5.68,SB,1555734142
331,villeneuve-sur-lot,44.41,0.7,48.79,81,0,6.51,FR,1555734137
332,bah,26.87,78.59,84.2,42,5,3.36,IN,1555731000
333,ambilobe,-13.19,49.05,74.31,83,33,7.65,MG,1555734143
334,gloversville,43.05,-74.34,64.67,82,90,18.34,US,1555734125
335,abha,18.22,42.5,59.95,72,0,3.51,SA,1555729200
336,fortuna,38.18,-1.13,57.0,82,75,27.51,ES,1555734140
337,axim,4.87,-2.24,81.15,82,100,4.59,GH,1555734144
338,broome,52.47,1.45,42.19,86,1,5.82,GB,1555734137
339,mount gambier,-37.83,140.78,87.8,20,81,18.34,AU,1555731060
340,palmer,61.6,-149.11,38.57,48,90,18.34,US,1555734084
341,valparai,10.33,76.96,84.2,74,20,2.19,IN,1555731000
342,port hardy,50.7,-127.42,46.4,65,20,11.41,CA,1555729200
343,abu samrah,35.3,37.18,47.4,88,0,9.89,SY,1555734149
344,kathu,-27.7,23.05,60.01,82,100,18.9,ZA,1555733786
345,cabedelo,-6.97,-34.84,78.8,94,20,3.36,BR,1555729200
346,hecun,29.94,119.31,78.8,53,0,3.67,CN,1555734150
347,kozhva,65.11,57.05,32.45,93,100,6.42,RU,1555733944
348,poum,41.28,20.71,33.8,80,0,3.36,MK,1555732800
349,ati,13.21,18.34,87.53,11,24,6.38,TD,1555734150
350,ahar,38.48,47.07,29.49,85,84,6.78,IR,1555734155
351,havre-saint-pierre,50.23,-63.6,32.0,87,90,3.36,CA,1555732800
352,walvis bay,-22.95,14.51,55.08,93,0,6.93,NA,1555732928
353,mayo,63.59,-135.9,37.4,55,75,2.24,CA,1555732800
354,matagami,9.67,8.4,77.79,10,73,1.9,NG,1555734156
355,temba,-25.38,28.26,56.68,89,0,4.41,ZA,1555733835
356,khovu-aksy,51.13,93.72,36.05,17,21,6.24,RU,1555734156
357,phalaborwa,-23.95,31.14,64.4,93,0,4.7,ZA,1555732800
358,hami,42.84,93.51,71.33,19,2,12.48,CN,1555734156
359,nome,30.04,-94.42,55.76,66,1,3.36,US,1555734102
360,oriximina,-1.77,-55.87,79.89,82,100,5.1,BR,1555734161
361,pegnitz,49.76,11.54,41.14,70,0,2.24,DE,1555734125
362,muisne,0.61,-80.02,79.34,85,86,11.5,EC,1555734162
363,anchorage,61.22,-149.89,38.44,48,75,17.22,US,1555734084
364,hovd,63.83,10.7,41.81,74,0,8.05,NO,1555734064
365,kenai,60.55,-151.26,34.95,74,90,7.18,US,1555734064
366,alekseyevka,53.25,50.49,35.6,43,0,2.24,RU,1555731000
367,terra santa,-2.1,-56.49,77.12,88,96,2.06,BR,1555734163
368,samarai,-10.62,150.67,87.36,57,41,5.1,PG,1555734163
369,kristiansund,63.12,7.73,42.31,64,57,13.87,NO,1555730400
370,cooma,-36.24,149.13,73.4,35,13,11.41,AU,1555729200
371,san juan,18.47,-66.12,75.09,78,40,10.29,PR,1555734160
372,lagoa,37.14,-8.45,54.07,82,0,6.93,PT,1555734145
373,watsa,3.04,29.53,65.08,96,85,2.44,CD,1555734169
374,mbarara,-0.61,30.65,64.11,63,80,3.51,UG,1555734169
375,shizunai,42.33,142.37,46.81,50,29,11.23,JP,1555733971
376,lima,-12.06,-77.04,68.92,88,0,3.36,PE,1555733104
377,nakamura,35.17,136.87,64.4,48,20,5.82,JP,1555731000
378,pudozh,61.81,36.54,33.69,95,87,5.35,RU,1555734170
379,mehamn,71.03,27.85,40.53,94,100,26.11,NO,1555734175
380,lufilufi,-13.87,-171.6,79.32,94,90,11.41,WS,1555733585
381,mazyr,52.05,29.27,40.94,71,28,4.0,BY,1555734180
382,haines junction,60.75,-137.51,30.95,34,31,10.63,CA,1555734181
383,witney,51.78,-1.49,44.33,87,0,2.24,GB,1555733885
384,khed brahma,24.03,73.05,86.14,24,0,3.85,IN,1555734181
385,carroll,-30.99,150.44,82.71,32,0,11.41,AU,1555733721
386,esna,45.2,27.57,41.0,80,20,9.17,RO,1555732800
387,zimmi,7.31,-11.31,78.06,90,100,1.86,SL,1555734181
388,fukue,35.03,136.69,64.4,48,20,5.82,JP,1555731000
389,shemonaikha,50.63,81.92,37.4,85,100,2.48,KZ,1555734182
390,omsukchan,62.53,155.8,31.89,99,88,13.2,RU,1555734187
391,bakal,54.94,58.81,33.08,65,20,2.66,RU,1555734187
392,zima,53.93,102.05,35.61,28,26,5.46,RU,1555734187
393,petropavlovsk-kamchatskiy,53.05,158.65,41.0,65,40,8.95,RU,1555731000
394,santa cruz,36.97,-122.03,55.04,100,90,4.7,US,1555734165
395,najran,17.54,44.22,75.2,50,0,9.17,SA,1555729200
396,praia da vitoria,38.73,-27.07,59.76,87,0,8.12,PT,1555733710
397,mahajanga,-15.72,46.32,78.8,83,20,4.7,MG,1555732800
398,cheney,47.49,-117.58,56.98,62,90,5.82,US,1555734020
399,lodja,-3.52,23.6,71.0,89,94,3.24,CD,1555734189
400,benghazi,32.12,20.07,60.42,50,0,10.29,LY,1555733923
401,newport,51.59,-3.0,47.41,71,65,9.17,GB,1555734189
402,luderitz,-26.65,15.16,55.4,54,0,3.36,NA,1555729200
403,godda,24.83,87.21,91.88,29,0,7.56,IN,1555734060
404,batagay,67.65,134.64,25.14,59,3,4.56,RU,1555734195
405,paluan,13.42,120.46,85.56,65,42,9.53,PH,1555734195
406,goderich,43.74,-81.71,39.0,90,100,5.99,CA,1555733977
407,thinadhoo,0.53,72.93,85.85,74,100,19.15,MV,1555734196
408,jumla,29.28,82.18,55.0,27,37,1.48,NP,1555734196
409,kijang,35.24,129.21,64.4,48,0,10.29,KR,1555729200
410,halifax,44.65,-63.58,50.31,100,90,20.8,CA,1555734016
411,teluknaga,-6.1,106.64,82.51,74,75,1.12,ID,1555734192
412,palanga,44.45,25.08,39.92,88,75,4.34,RO,1555734201
413,razdolinsk,58.42,94.62,27.28,86,100,9.95,RU,1555734201
414,ciudad guayana,8.32,-62.69,78.63,75,46,10.87,VE,1555734050
415,tamiahua,21.28,-97.45,73.65,67,0,12.15,MX,1555734202
416,beyla,8.69,-8.65,71.01,96,95,3.89,GN,1555733747
417,sesheke,-17.47,24.29,69.8,77,0,4.7,NA,1555729200
418,benguela,-12.58,13.4,81.59,77,62,6.8,AO,1555734202
419,teguldet,57.31,88.17,32.52,80,0,7.09,RU,1555734202
420,auburn,32.61,-85.48,47.79,100,75,8.05,US,1555733927
421,virginia beach,36.85,-75.98,66.99,94,20,13.87,US,1555734039
422,portland,45.52,-122.67,51.87,87,90,5.82,US,1555734206
423,fonte boa,-2.51,-66.09,77.68,89,100,2.26,BR,1555734208
424,hirara,24.8,125.28,74.43,94,75,5.82,JP,1555731420
425,buchanan,5.88,-10.05,75.2,94,96,4.05,LR,1555732800
426,igarka,67.47,86.57,4.22,85,100,5.91,RU,1555734208
427,zhanaozen,43.35,52.85,42.8,58,100,14.2,KZ,1555734208
428,worland,44.02,-107.96,59.7,38,1,8.05,US,1555734042
429,groningen,53.22,6.57,47.77,75,0,5.82,NL,1555734018
430,kudahuvadhoo,2.67,72.89,85.35,72,96,15.03,MV,1555734214
431,moa,20.66,-74.95,67.64,96,0,3.49,CU,1555734214
432,novoagansk,61.94,76.66,21.2,90,90,12.64,RU,1555734019
433,srednekolymsk,67.46,153.71,20.39,80,100,13.24,RU,1555734215
434,semey,50.41,80.25,37.4,86,75,2.24,KZ,1555731000
435,yatou,3.63,9.81,81.3,80,98,5.53,CM,1555734215
436,aden,12.79,45.03,81.21,75,61,4.0,YE,1555734215
437,cayenne,4.94,-52.33,80.6,83,90,6.93,GF,1555731000
438,slave lake,55.28,-114.77,42.8,48,20,8.05,CA,1555732800
439,moranbah,-22.0,148.04,84.27,38,0,15.57,AU,1555734216
440,cap-aux-meules,47.38,-61.86,38.04,94,100,16.08,CA,1555733970
441,azuaga,38.26,-5.68,45.0,90,89,4.0,ES,1555732864
442,norman wells,65.28,-126.83,32.0,89,90,2.24,CA,1555732800
443,port-gentil,-0.72,8.78,82.74,77,100,7.85,GA,1555734221
444,tura,25.52,90.21,90.06,36,0,2.57,IN,1555734221
445,rokupr,9.01,-12.95,84.2,70,75,5.82,SL,1555729200
446,salalah,17.01,54.1,80.6,78,40,3.36,OM,1555728600
447,waipawa,-39.94,176.59,63.0,63,0,8.99,NZ,1555732517
448,coahuayana,18.62,-100.35,86.28,21,65,0.67,MX,1555734222
449,cotonou,6.37,2.43,82.4,88,40,9.17,BJ,1555732800
450,mumford,5.26,-0.76,78.69,90,100,2.62,GH,1555734227
451,saint andrews,-44.53,171.19,55.42,95,99,11.99,NZ,1555734138
452,mandsaur,24.07,75.07,84.23,26,0,5.61,IN,1555734228
453,ponta delgada,37.73,-25.67,60.8,93,75,3.36,PT,1555732800
454,saint-paul,45.22,1.9,46.98,70,0,6.93,FR,1555734015
455,kryvyy rih,47.92,33.35,37.4,59,0,8.95,UA,1555731000
456,urucara,-2.54,-57.76,75.75,92,92,1.03,BR,1555734229
457,poquoson,37.12,-76.35,66.83,94,20,13.87,US,1555734211
458,zhangjiakou,40.77,114.88,56.94,49,100,12.46,CN,1555734229
459,seymchan,62.93,152.39,33.96,100,100,5.01,RU,1555734229
460,jiayuguan,39.77,98.29,62.36,22,3,6.55,CN,1555734234
461,sabang,13.72,123.58,85.19,67,22,7.43,PH,1555734235
462,hay river,60.82,-115.79,30.2,100,75,2.24,CA,1555732800
463,bolshaya sosnova,57.67,54.6,32.28,88,9,3.8,RU,1555734235
464,fort nelson,58.81,-122.69,44.6,42,75,14.99,CA,1555732800
465,moindou,-21.69,165.68,84.2,58,75,4.7,NC,1555731000
466,punta de bombon,-17.17,-71.79,64.94,87,97,6.17,PE,1555734235
467,paraiso,24.01,-104.61,56.87,14,2,9.1,MX,1555734236
468,vung tau,10.35,107.08,88.08,62,46,9.66,VN,1555734217
469,concordia,-31.4,-58.02,71.01,91,37,1.99,AR,1555733813
470,gigmoto,13.78,124.39,85.19,64,33,4.7,PH,1555734241
471,ahipara,-35.17,173.16,67.01,64,1,6.64,NZ,1555734241
472,morehead,38.18,-83.43,45.72,93,90,5.82,US,1555733820
473,joshimath,30.57,79.57,57.11,20,0,3.4,IN,1555734241
474,pangnirtung,66.15,-65.72,14.18,93,97,3.0,CA,1555734241
475,lavrentiya,65.58,-170.99,3.48,88,0,6.08,RU,1555734242
476,guatire,10.47,-66.54,72.66,83,75,5.82,VE,1555734021
477,la ronge,55.1,-105.3,39.2,64,20,4.7,CA,1555732800
478,umaria,23.52,80.84,85.76,28,0,3.47,IN,1555734242
479,necochea,-38.55,-58.74,52.0,85,0,6.69,AR,1555731109
480,redcar,54.62,-1.06,40.6,93,48,1.12,GB,1555734244
481,cururupu,-1.82,-44.87,75.11,98,100,0.94,BR,1555734248
482,tabuk,17.41,121.44,78.56,65,74,2.3,PH,1555734248
483,serbanesti,44.33,24.7,42.06,86,16,6.93,RO,1555733760
